{
  "type": "FeatureCollection",
  "features": [
    {
      "type": "Feature",
      "properties": {
        "name": "Kenya: KMD & ICPAC",
        "comments": ""
      },
      "geometry": {
        "type": "Point",
        "coordinates": [37.906193, -0.023559]
      }
    },
    {
      "type": "Feature",
      "properties": {
        "name": "Lesotho",
        "comments": ""
      },
      "geometry": {
        "type": "Point",
        "coordinates": [28.23360, -29.60999]
      }
    },
    {
      "type": "Feature",
      "properties": {
        "name": "Malawi",
        "comments": ""
      },
      "geometry": {
        "type": "Point",
        "coordinates": [34.301525, -13.25431]
      }
    },
    {
      "type": "Feature",
      "properties": {
        "name": "Rwanda",
        "comments": ""
      },
      "geometry": {
        "type": "Point",
        "coordinates": [29.873888, -1.940278]
      }
    },
    {
      "type": "Feature",
      "properties": {
        "name": "Uganda",
        "comments": ""
      },
      "geometry": {
        "type": "Point",
        "coordinates": [32.290275, 1.373333]
      }
    },
    {
      "type": "Feature",
      "properties": {
        "name": "Saint Vincent & the Grenadines",
        "comments": ""
      },
      "geometry": {
        "type": "Point",
        "coordinates": [-61.28723, 12.984305]
      }
    },
    {
      "type": "Feature",
      "properties": {
        "name": "Seychelles",
        "comments": ""
      },
      "geometry": {
        "type": "Point",
        "coordinates": [55.491977, -4.679574]
      }
    },
    {
      "type": "Feature",
      "properties": {
        "name": "Botswana",
        "comments": ""
      },
      "geometry": {
        "type": "Point",
        "coordinates": [24.684866, -22.32847]
      }
    },
    {
      "type": "Feature",
      "properties": {
        "name": "Bhutan",
        "comments": ""
      },
      "geometry": {
        "type": "Point",
        "coordinates": [90.433601, 27.514162]
      }
    },
    {
      "type": "Feature",
      "properties": {
        "name": "Burkina Faso",
        "comments": ""
      },
      "geometry": {
        "type": "Point",
        "coordinates": [-1.561593, 12.238333]
      }
    },
    {
      "type": "Feature",
      "properties": {
        "name": "Sri Lanka",
        "comments": ""
      },
      "geometry": {
        "type": "Point",
        "coordinates": [80.771797, 7.873054]
      }
    },
    {
      "type": "Feature",
      "properties": {
        "name": "Namibia",
        "comments": ""
      },
      "geometry": {
        "type": "Point",
        "coordinates": [18.49041, -22.95764]
      }
    },
    {
      "type": "Feature",
      "properties": {
        "name": "Eswatini",
        "comments": ""
      },
      "geometry": {
        "type": "Point",
        "coordinates": [31.465866, -26.522503]
      }
    },
    {
      "type": "Feature",
      "properties": {
        "name": "Niger: AGRHYMET",
        "comments": ""
      },
      "geometry": {
        "type": "Point",
        "coordinates": [8.081666, 17.607789]
      }
    },
    {
      "type": "Feature",
      "properties": {
        "name": "Zimbabwe",
        "comments": ""
      },
      "geometry": {
        "type": "Point",
        "coordinates": [29.154857, -19.015438]
      }
    },
    {
      "type": "Feature",
      "properties": {
        "name": "Mozambique",
        "comments": ""
      },
      "geometry": {
        "type": "Point",
        "coordinates": [35.529562, -18.665695]
      }
    },
    {
      "type": "Feature",
      "properties": {
        "name": "Burundi",
        "comments": ""
      },
      "geometry": {
        "type": "Point",
        "coordinates": [29.918886, -3.373056]
      }
    },
    {
      "type": "Feature",
      "properties": {
        "name": "DR Congo",
        "comments": ""
      },
      "geometry": {
        "type": "Point",
        "coordinates": [21.758664, -4.038333]
      }
    },
    {
      "type": "Feature",
      "properties": {
        "name": "Sudan",
        "comments": ""
      },
      "geometry": {
        "type": "Point",
        "coordinates": [30.217636, 12.862807]
      }
    },
    {
      "type": "Feature",
      "properties": {
        "name": "Madagascar",
        "comments": ""
      },
      "geometry": {
        "type": "Point",
        "coordinates": [46.869107, -18.766947]
      }
    },
    {
      "type": "Feature",
      "properties": {
        "name": "Cape Verde",
        "comments": ""
      },
      "geometry": {
        "type": "Point",
        "coordinates": [-24.013197, 16.002082]
      }
    },
    {
      "type": "Feature",
      "properties": {
        "name": "Djibouti",
        "comments": ""
      },
      "geometry": {
        "type": "Point",
        "coordinates": [42.590275, 11.825138]
      }
    },
    {
      "type": "Feature",
      "properties": {
        "name": "Zambia",
        "comments": ""
      },
      "geometry": {
        "type": "Point",
        "coordinates": [27.849332, -13.133897]
      }
    }
  ]
}
